#Network|Station|Latitude|Longitude|Elevation|SiteName|StartTime|EndTime
MG|ABM|-19.78270|47.36460|1824.0|ABM station|1980-01-01T00:00:00|
MG|ATG|-18.878200|46.18710|1520.0|ATG station|1980-01-01T00:00:00|
MG|AVY|-18.927900|47.737600|1773.0|AVY station|1980-01-01T00:00:00|
MG|DGRM|-19.25559|46.42429|1227.0|DGRM station|1980-01-01T00:00:00|
MG|FIRM|-18.69986|46.878777|1712.0|FIRM station|1980-01-01T00:00:00|
MG|MDSM|-19.088300|47.027500|1504.0|MDSM station|1980-01-01T00:00:00|
